,City,Country,Cloudiness,Date,Humidity,Latitude,Longitude,Maximum Temp,Wind Speed
0,Rikitea,PF,100,1570568400,83,-23.1203,-134.9692,67.14,10.45
1,Kaitangata,NZ,100,1570568400,97,-46.2818,169.8464,49.96,2.79
2,Omboue,GA,90,1570568400,95,-1.5747,9.2618,75.02,2.72
3,Butaritari,KI,33,1570568400,66,3.0707,172.7902,85.34,12.8
4,Arraial do Cabo,BR,100,1570568400,93,-22.9663,-42.0245,75.06,3.4
5,Tiksi,RU,100,1570568400,87,71.6366,128.8685,25.32,14.18
6,Puerto Ayora,EC,3,1570568400,70,-0.7394,-90.3518,73.29,19.91
7,Yulara,AU,0,1570568400,35,-25.2411,130.9869,56.61,11.38
8,Zyryanka,RU,100,1570568400,69,65.7336,150.8933,17.31,4.32
9,Provideniya,RU,100,1570568400,99,64.4238,-173.2276,34.14,3.27
10,Flums,CH,41,1570568400,79,47.094,9.3436,53.91,7.28
11,Muddebihal,IN,84,1570568400,84,16.3333,76.1333,75.0,7.27
12,Cayenne,GF,61,1570568400,74,4.9371,-52.3259,81.89,7.7
13,Kropotkin,RU,100,1570568400,88,45.4344,40.575,48.02,5.41
14,Champasak,LA,57,1570568400,90,14.8873,105.8766,70.72,1.88
15,Ahipara,NZ,88,1570568400,79,-35.1665,173.1562,59.85,11.14
16,Ushuaia,AR,100,1570568400,98,-54.807,-68.3074,39.78,6.69
17,Pevek,RU,100,1570568400,80,69.7028,170.2747,30.94,17.38
18,Iskateley,RU,3,1570568400,87,67.6803,53.1512,32.52,16.77
19,Poli,CM,100,1570568400,92,8.4761,13.2409,72.5,1.21
20,Nguruka,TZ,100,1570568400,47,-5.1113,31.0443,77.47,2.9
21,Saint-Philippe,CA,0,1570568400,46,45.3584,-73.4791,61.77,5.21
22,Alofi,NU,75,1570568400,76,-19.0596,-169.9187,75.52,16.11
23,Lagoa,PT,0,1570568400,77,37.1363,-8.4541,70.7,7.27
24,Anadyr,RU,97,1570568400,85,64.7317,177.5061,33.44,21.88
25,Dandong,CN,0,1570568400,41,40.1193,124.3687,43.63,2.1
26,Kudahuvadhoo,MV,66,1570568400,81,2.6708,72.8944,80.76,12.75
27,Thompson,CA,100,1570568400,84,55.7433,-97.8635,36.32,14.81
28,Albany,US,97,1570568400,60,42.6512,-73.755,58.85,6.58
29,Bukachacha,RU,100,1570568400,84,52.9884,116.9117,38.55,8.89
30,Hilo,US,71,1570568400,60,19.7072,-155.0817,79.59,7.41
31,Port-Gentil,GA,97,1570568400,85,-0.7194,8.7815,79.3,13.22
32,Beni,CD,100,1570568400,99,0.4939,29.4653,65.3,1.77
33,Portobelo,PA,48,1570568400,70,9.55,-79.6501,86.76,5.82
34,Jamestown,AU,0,1570568400,86,-33.2075,138.6035,38.91,6.8
35,Nixa,US,0,1570568400,40,37.0434,-93.2944,71.67,7.63
36,Mataura,NZ,100,1570568400,99,-46.1928,168.8643,50.86,2.96
37,Vaini,IN,100,1570568400,93,15.336,74.4926,69.37,0.46
38,Djambala,CG,3,1570568400,81,-2.5464,14.7558,70.58,1.29
39,Waddan,LY,62,1570568400,71,29.1615,16.1414,64.62,2.24
40,Bull Savanna,JM,100,1570568400,70,17.8868,-77.5903,85.19,19.64
41,Kodiak,US,0,1570568400,54,39.9519,-94.7572,71.26,15.75
42,Ancud,CL,100,1570568400,87,-41.8682,-73.8288,53.96,5.7
43,Makakilo City,US,49,1570568400,56,21.3469,-158.0859,86.95,2.79
44,Nuevo Progreso,US,36,1570568400,56,26.0544,-97.9519,87.84,11.14
45,Shakawe,BW,0,1570568400,14,-18.3633,21.8398,73.98,6.67
46,Khotyn,UA,71,1570568400,68,48.5068,26.4859,42.32,7.52
47,Hermanus,ZA,88,1570568400,72,-34.4176,19.2361,60.55,19.92
48,Fairbanks,US,100,1570568400,93,64.8378,-147.7167,33.48,3.15
49,Busselton,AU,100,1570568400,78,-33.6445,115.3489,62.03,16.6
50,Pilar,AR,0,1570568400,59,-34.4571,-58.9142,72.66,5.17
51,Muros,ES,0,1570568400,75,42.7744,-9.0576,62.95,12.73
52,Guerrero Negro,MX,0,1570568400,80,27.971,-114.0364,70.45,13.94
53,Saint-Pierre,FR,49,1570568400,95,48.9455,4.2446,52.48,10.78
54,Lishui,CN,86,1570568400,86,28.4531,119.9095,60.87,1.98
55,Lebu,ET,100,1570568400,90,8.9611,38.7254,58.42,3.31
56,Lakes Entrance,AU,0,1570568400,81,-37.8795,147.9944,47.73,15.8
57,Severo-Kurilsk,RU,44,1570568400,87,50.6789,156.125,45.7,30.27
58,Tawang,BT,94,1570568400,93,27.5949,91.8704,36.5,3.56
59,Port Elizabeth,US,100,1570568400,61,39.3134,-74.9811,63.36,12.19
60,Hobart,AU,40,1570568400,87,-42.8826,147.3281,49.05,2.13
61,Atuona,PF,0,1570568400,73,-9.8,-139.0334,79.16,13.91
62,Qaanaaq,GL,93,1570568400,65,77.484,-69.3633,19.89,12.57
63,Labuhan,ID,12,1570568400,84,-2.5409,115.5092,71.74,1.12
64,Homer,US,100,1570568400,77,59.6441,-151.5402,47.49,10.16
65,Giresun,TR,100,1570568400,83,40.9149,38.3879,68.38,5.59
66,Cabo San Lucas,MX,1,1570568400,55,22.8938,-109.9112,89.74,5.69
67,Faanui,PF,56,1570568400,84,-16.4834,-151.75,77.41,20.76
68,Chalus,IR,2,1570568400,84,36.6599,51.4206,72.51,6.24
69,Hami,CN,32,1570568400,23,42.8354,93.5128,56.14,5.32
70,Owando,CG,18,1570568400,84,-0.491,15.9079,73.67,0.67
71,Seymchan,RU,5,1570568400,93,62.9318,152.3933,4.6,2.59
72,Pitsunda,GE,100,1570568400,90,43.1598,40.3372,59.65,3.51
73,East London,ZA,0,1570568400,72,-33.0153,27.9116,65.46,14.6
74,New Norfolk,AU,40,1570568400,87,-42.7802,147.0615,49.05,2.13
75,Maldonado,UY,0,1570568400,63,-34.9088,-54.9583,70.39,7.4
76,Kapaa,US,22,1570568400,56,22.0752,-159.319,87.55,3.89
77,Oistins,BB,100,1570568400,75,13.0667,-59.5334,86.04,18.98
78,Mount Gambier,AU,100,1570568400,69,-37.8302,140.7843,51.99,7.67
79,Porto Belo,BR,100,1570568400,89,-27.1543,-48.5425,76.57,3.13
80,Port Alfred,ZA,0,1570568400,84,-33.5906,26.891,61.36,6.81
81,Cherskiy,RU,100,1570568400,95,68.75,161.3,14.09,7.57
82,Lompoc,US,0,1570568400,51,34.6392,-120.458,68.51,15.98
83,Yellowknife,CA,100,1570568400,55,62.4541,-114.3774,33.57,19.59
84,Punta Arenas,CL,100,1570568400,75,-53.1627,-70.9081,42.33,24.27
85,Bluff,AU,0,1570568400,29,-23.58,149.0661,69.42,10.05
86,Saskylakh,RU,86,1570568400,95,71.965,114.0939,16.09,8.85
87,Quatre Cocos,MU,8,1570568400,77,-20.2078,57.7625,71.24,14.76
88,Luderitz,NA,0,1570568400,77,-26.6481,15.1594,58.68,32.14
89,Mar del Plata,AR,77,1570568400,36,-46.4276,-67.5191,58.21,14.18
90,Lasa,CY,43,1570568400,87,34.9245,32.5278,70.3,4.34
91,Longyearbyen,NO,99,1570568400,88,78.2198,15.6349,35.53,3.31
92,Bassar,TG,37,1570568400,97,9.262,0.779,71.44,3.74
93,Marzuq,YE,0,1570568400,57,14.4,46.4667,73.37,5.79
94,Hasaki,JP,99,1570568400,71,35.7333,140.8333,67.89,31.35
95,Severo-Yeniseyskiy,RU,40,1570568400,98,60.3725,93.0408,25.74,2.37
96,Tadine,NC,0,1570568400,68,-21.55,167.8833,74.61,12.51
97,Mahebourg,MU,8,1570568400,77,-20.4081,57.7,71.26,14.76
98,Hirara,JP,7,1570568400,82,24.8,125.2833,78.66,22.41
99,Constitucion,MX,12,1570568400,47,23.9912,-104.675,72.36,8.14
100,Nacala,MZ,0,1570568400,89,-14.5565,40.687,73.11,3.39
101,Poum,MK,17,1570568400,87,41.2813,20.7117,51.58,4.72
102,Esperance,AU,100,1570568400,57,-33.8583,121.8932,61.67,19.36
103,Geraldton,CA,0,1570568400,55,49.7189,-86.9494,60.96,18.43
104,Coahuayana,MX,65,1570568400,68,18.6201,-100.3453,85.06,2.53
105,Qaqortoq,GL,100,1570568400,93,60.7167,-46.0334,38.52,10.63
106,Codrington,AU,0,1570568400,46,-28.9484,153.2428,62.01,3.98
107,Khandbari,NP,32,1570568400,83,27.3778,87.2081,48.69,3.2
108,Kahului,US,39,1570568400,75,20.8894,-156.4728,79.47,14.85
109,Plettenberg Bay,ZA,7,1570568400,82,-34.0528,23.3716,60.12,6.36
110,Bhainsdehi,IN,0,1570568400,71,21.6454,77.6314,66.76,2.71
111,Srednekolymsk,RU,82,1570568400,87,67.4555,153.7071,10.13,5.24
112,Albanel,CA,26,1570568400,59,48.8837,-72.4425,53.85,3.74
113,Narsaq,GL,100,1570568400,96,60.9127,-46.0453,38.26,7.53
114,Tasiilaq,GL,100,1570568400,56,65.6145,-37.6368,44.51,7.02
115,Lahat,ID,74,1570568400,82,-3.7833,103.5452,67.32,2.7
116,Sabzevar,IR,0,1570568400,24,36.2134,57.6809,64.04,6.04
117,Cairns,AU,50,1570568400,39,-16.9205,145.7719,68.02,1.81
118,Hofn,IS,100,1570568400,89,64.2539,-15.2082,47.39,35.6
119,Te Anau,NZ,100,1570568400,97,-45.4145,167.7175,46.35,1.76
120,Olga,US,0,1570568400,55,34.1125,-118.1657,75.2,8.34
121,Isangel,VU,58,1570568400,80,-19.55,169.2667,73.2,14.1
122,Nizhyn,UA,100,1570568400,54,51.0465,31.8806,44.28,11.56
123,Cape Town,ZA,67,1570568400,70,-33.929,18.4174,59.76,6.35
124,Bethel,US,30,1570568400,67,60.7922,-161.7559,48.67,15.41
125,Chuy,UY,0,1570568400,70,-33.6938,-53.4562,64.73,5.56
126,Bilma,NE,60,1570568400,28,18.6929,12.9187,90.97,2.1
127,Hokitika,NZ,100,1570568400,99,-42.7179,170.9646,54.72,12.19
128,Oktyabrskiy,RU,50,1570568400,85,55.6086,37.9744,34.3,8.7
129,Laela,TZ,86,1570568400,40,-8.5725,32.047,69.08,6.82
130,Fortuna,US,2,1570568400,83,40.5974,-124.1561,60.55,22.3
131,Stokmarknes,NO,98,1570568400,56,68.5646,14.9108,43.42,9.22
132,Beringovskiy,RU,48,1570568400,68,63.05,179.3167,31.91,16.82
133,Rio Gallegos,AR,100,1570568400,54,-51.6227,-69.2182,48.96,35.25
134,Weyburn,CA,100,1570568400,76,49.6694,-103.8511,53.44,6.42
135,Romny,UA,100,1570568400,60,50.7421,33.4877,42.49,12.12
136,Aksarka,RU,98,1570568400,91,66.5606,67.7975,33.67,9.28
137,Avarua,CK,100,1570568400,67,-21.2078,-159.775,72.97,18.87
138,Cidreira,BR,100,1570568400,83,-30.1658,-50.2184,65.93,13.99
139,Talnakh,RU,0,1570568400,69,69.494,88.3908,18.25,5.16
140,Nalut,LY,58,1570568400,79,31.8642,10.983,64.17,15.84
141,Ghanzi,BW,0,1570568400,13,-21.699,21.6452,75.0,5.64
142,Nouadhibou,MR,0,1570568400,63,20.931,-17.0347,75.26,19.36
143,Raudeberg,NO,100,1570568400,79,61.9875,5.1352,49.21,11.37
144,Wajid,SO,91,1570568400,66,3.8093,43.2471,79.29,10.7
145,Senneterre,CA,0,1570568400,56,48.3905,-77.2429,54.31,5.97
146,Ponta do Sol,BR,100,1570568400,80,-20.6335,-45.9989,71.3,1.99
147,Kargasok,RU,100,1570568400,84,59.0598,80.8709,35.78,4.32
148,Bredasdorp,ZA,74,1570568400,82,-34.5331,20.0428,57.96,12.05
149,Brae,GB,99,1570568400,88,60.3964,-1.353,51.64,19.88
150,Matamoros,US,48,1570568400,65,25.8705,-97.5067,86.7,11.21
151,Petropavlovsk-Kamchatskiy,RU,35,1570568400,79,53.0452,158.6483,43.62,3.78
152,Kavieng,PG,4,1570568400,73,-2.5745,150.7967,84.81,11.95
153,Agadez,NE,35,1570568400,42,16.9726,7.9907,87.83,14.63
154,Taksimo,RU,100,1570568400,78,56.3555,114.838,20.32,6.31
155,Norman Wells,CA,10,1570568400,51,65.2824,-126.8328,34.11,5.03
156,Huanren,CN,0,1570568400,57,41.2647,125.3667,36.5,4.43
157,Naze,NG,100,1570568400,98,5.4333,7.0667,73.98,4.41
158,Los Llanos de Aridane,ES,5,1570568400,79,28.6585,-17.9183,72.18,8.0
159,Chokurdakh,RU,92,1570568400,98,70.6192,147.9022,8.73,3.44
160,Castro,CL,96,1570568400,86,-42.4824,-73.7644,48.18,3.6
161,Sabana de Torres,CO,30,1570568400,69,7.3939,-73.4999,86.94,3.27
162,Kununurra,AU,16,1570568400,57,-15.7731,128.7388,74.84,2.33
163,Rogers,US,0,1570568400,43,36.332,-94.1186,71.42,5.91
164,Pangnirtung,CA,95,1570568400,95,66.149,-65.7179,35.87,1.93
165,Westport,US,100,1570568400,57,41.1415,-73.3579,60.94,5.86
166,Barrow,AR,0,1570568400,48,-38.3131,-60.2291,62.28,5.5
167,Buri,BR,67,1570568400,80,-23.7985,-48.599,66.2,9.16
168,Saint George,GR,86,1570568400,82,39.4548,22.34,59.15,2.33
169,Praya,ID,52,1570568400,71,-8.7054,116.2704,73.58,1.47
170,Umea,SE,78,1570568400,92,63.8284,20.2597,33.62,3.89
171,Taiyuan,CN,100,1570568400,51,37.8562,112.5562,53.97,2.82
172,Zaraza,VE,78,1570568400,82,9.3503,-65.325,84.24,4.72
173,Leningradskiy,RU,100,1570568400,97,69.3833,178.4167,33.55,23.73
174,Panguipulli,CL,100,1570568400,50,-39.642,-72.3334,59.45,3.22
175,Puerto Escondido,MX,1,1570568400,68,15.8624,-97.0717,85.2,7.61
176,Fountain Hills,US,0,1570568400,16,33.6117,-111.7174,93.56,9.66
177,Fort Nelson,CA,0,1570568400,33,58.8063,-122.694,38.11,9.15
178,Hithadhoo,MV,4,1570568400,72,-0.6,73.0833,81.81,7.23
179,Saint Anthony,US,99,1570568400,23,43.9663,-111.6822,63.79,22.8
180,Eau Claire,US,42,1570568400,56,44.8113,-91.4985,67.17,15.3
181,Dikson,RU,33,1570568400,91,73.5069,80.5464,19.47,13.15
182,Ca Mau,VN,100,1570568400,90,9.1792,105.1458,76.33,3.51
183,Smithers,CA,87,1570568400,60,54.783,-127.1703,35.53,3.49
184,Ledyard,US,100,1570568400,56,41.4386,-72.0176,62.25,6.02
185,La Ronge,CA,100,1570568400,47,55.1004,-105.3013,37.41,14.97
186,La Plata,AR,0,1570568400,41,-34.9207,-57.9538,72.79,7.47
187,Kamaishi,JP,55,1570568400,80,39.2793,141.864,42.93,22.37
188,Villa Carlos Paz,AR,21,1570568400,40,-31.4211,-64.4993,76.6,9.06
189,Vranovice,CZ,100,1570568400,91,49.8454,13.5544,52.93,13.73
190,Dunedin,NZ,100,1570568400,83,-45.874,170.5035,51.75,4.83
191,Limbdi,IN,0,1570568400,60,22.5674,71.8062,81.19,5.19
192,Baruun-Urt,MN,0,1570568400,50,46.6808,113.2846,44.26,14.1
193,Medina del Campo,ES,67,1570568400,56,41.3085,-4.9151,66.78,7.63
194,Khammam,IN,100,1570568400,93,17.2465,80.15,74.26,3.58
195,Beitbridge,ZA,0,1570568400,26,-22.2101,29.9925,82.62,19.4
196,Jacaltenango,GT,82,1570568400,95,15.6673,-91.715,64.22,3.0
197,Trossingen,DE,62,1570568400,89,48.0751,8.6363,59.7,12.97
198,Laguna,BZ,100,1570568400,52,16.1684,-88.941,89.69,5.81
199,Iqaluit,CA,100,1570568400,88,63.7494,-68.5219,40.55,1.32
200,Buala,SB,85,1570568400,79,-8.1456,159.593,81.45,4.08
201,Tautira,PF,100,1570568400,84,-17.7334,-149.15,77.81,22.73
202,Semey,KZ,0,1570568400,74,50.405,80.2492,52.16,7.11
203,Elverum,NO,100,1570568400,99,60.883,11.5602,34.14,3.74
204,Konstantinovka,UA,62,1570568400,60,46.8521,29.8466,44.37,11.3
205,Vestmannaeyjar,IS,91,1570568400,85,63.4427,-20.2734,49.77,7.7
206,Port Hardy,CA,0,1570568400,53,50.6996,-127.4199,51.28,6.15
207,Stephenville,CA,48,1570568400,90,48.5452,-58.5872,48.6,13.82
208,Lalmohan,BD,65,1570568400,86,22.3384,90.7419,76.96,1.61
209,Sibu,MY,100,1570568400,91,2.2907,111.8263,75.21,2.57
210,Sechura,PE,100,1570568400,92,-5.5576,-80.8224,61.56,19.48
211,Caravelas,BR,0,1570568400,84,-17.7297,-39.2661,73.6,10.04
212,Fairview,CA,100,1570568400,35,56.0671,-118.381,33.74,12.93
213,Victoria,BN,100,1570568400,73,5.2785,115.2423,83.13,7.76
214,San Quintin,PH,0,1570568400,85,17.5427,120.5203,71.65,4.16
215,Rio Grande,BR,0,1570568400,69,-32.0335,-52.0992,73.85,7.57
216,Khatanga,RU,18,1570568400,92,71.9801,102.4743,16.61,5.55
217,Mikhaylovka,RU,100,1570568400,73,52.9601,103.2885,35.48,12.64
218,Makat,KZ,67,1570568400,49,47.6469,53.3463,51.39,4.43
219,Kautokeino,NO,97,1570568400,97,69.0125,23.0412,27.48,7.38
220,Uberaba,BR,100,1570568400,77,-19.7509,-47.9367,73.94,11.81
221,Yangambi,CD,98,1570568400,99,0.7658,24.4734,68.58,1.45
222,Sokoni,CD,79,1570568400,33,-12.8902,28.7793,74.36,1.89
223,Marawi,PH,45,1570568400,96,8.0035,124.2866,71.82,2.84
224,La Romana,DO,100,1570568400,80,18.4273,-68.9735,83.65,8.86
225,Amuntai,ID,38,1570568400,82,-2.4197,115.254,73.99,2.01
226,Turukhansk,RU,86,1570568400,90,65.7954,87.9608,31.12,3.51
227,Souillac,FR,98,1570568400,93,45.6006,-0.6,56.39,4.28
228,High Level,CA,100,1570568400,45,58.5167,-117.1334,35.85,11.59
229,Adrar,DZ,0,1570568400,22,27.8734,-0.2875,79.11,16.47
230,Vredendal,ZA,0,1570568400,85,-31.6795,18.4922,57.2,8.59
231,Sisimiut,GL,10,1570568400,54,66.9395,-53.6735,29.5,2.83
232,Lavrentiya,RU,100,1570568400,99,65.5842,-170.989,33.3,3.58
233,Monroe,US,0,1570568400,49,41.9145,-83.3969,67.35,6.24
234,Nuuk,GL,0,1570568400,72,64.175,-51.7356,39.02,2.55
235,Carnarvon,ZA,0,1570568400,33,-30.9678,22.1333,60.44,13.6
236,Sarapulka,RU,100,1570568400,84,56.8678,61.0552,43.34,2.23
237,Husavik,CA,1,1570568400,54,50.5623,-96.9949,67.84,15.02
238,Namibe,AO,100,1570568400,89,-15.1902,12.1531,66.92,7.77
239,Atbasar,KZ,0,1570568400,55,51.811,68.3626,52.43,7.3
240,Wajir,KE,67,1570568400,57,1.7497,40.0663,83.65,21.21
241,Mathbaria,BD,97,1570568400,93,22.2876,89.9593,75.61,1.45
242,Jose Bonifacio,BR,74,1570568400,60,-21.0528,-49.6884,79.44,4.14
243,Black River,JM,100,1570568400,70,18.027,-77.8483,88.21,19.64
244,Aklavik,CA,75,1570568400,49,68.2183,-135.0136,33.27,5.68
245,San,ML,100,1570568400,31,13.2991,-4.8983,87.42,9.86
246,Camocim,BR,50,1570568400,59,-2.9006,-40.8429,80.92,13.47
247,Hue,VN,1,1570568400,94,16.4691,107.5778,77.43,2.84
248,Bubaque,GW,95,1570568400,84,11.2833,-15.8334,79.27,11.52
249,San Lorenzo,HN,100,1570568400,71,13.4291,-87.4477,87.59,3.25
250,Ostrovnoy,RU,100,1570568400,98,68.0544,39.5129,38.01,14.43
251,Zheshart,RU,100,1570568400,76,62.09,49.5888,34.32,12.46
252,Georgetown,GY,100,1570568400,75,6.8026,-58.1629,82.65,7.07
253,Keti Bandar,PK,0,1570568400,73,24.1439,67.4511,83.48,14.97
254,Houma,CN,100,1570568400,79,35.6254,111.3627,54.68,13.53
255,Nishihara,JP,57,1570568400,41,35.7387,139.5312,69.3,19.91
256,San Patricio,PY,0,1570568400,58,-26.9767,-56.8274,76.53,3.83
257,Kodinar,IN,21,1570568400,75,20.7903,70.7031,77.88,6.22
258,Egvekinot,RU,51,1570568400,92,66.3167,-179.1667,23.45,10.83
259,Ukiah,US,68,1570568400,25,39.1502,-123.2078,77.85,7.83
260,Upernavik,GL,100,1570568400,56,72.7868,-56.1549,27.5,7.51
261,Hay River,CA,100,1570568400,69,60.8156,-115.7867,35.46,26.22
262,Mehran,IR,45,1570568400,25,33.1239,46.1659,84.62,2.86
263,Ilulissat,GL,30,1570568400,54,69.2167,-51.1,28.27,4.79
264,Port Lincoln,AU,100,1570568400,69,-34.7212,135.8592,51.73,8.69
265,Abu Samrah,SY,41,1570568400,39,35.3029,37.1841,70.74,5.26
266,Carauari,BR,35,1570568400,44,-4.8767,-66.8962,92.95,2.75
267,Nebug,RU,100,1570568400,94,44.1643,38.9989,44.4,7.16
268,Lima,PE,85,1570568400,87,-12.0622,-77.0366,63.48,11.83
269,Waipawa,NZ,0,1570568400,64,-39.9412,176.5913,61.39,3.06
270,Byron Bay,AU,31,1570568400,73,-28.65,153.6167,62.73,4.85
271,Praia,BR,100,1570568400,76,-20.2488,-43.8055,76.95,3.53
272,Bodmin,GB,18,1570568400,73,50.4707,-4.7244,56.29,22.82
273,Cap Malheureux,MU,16,1570568400,76,-19.9842,57.6142,73.1,22.95
274,Sitka,US,0,1570568400,33,37.175,-99.6516,77.56,25.37
275,Arman,RU,100,1570568400,83,59.7,150.1667,36.41,17.54
276,Salalah,OM,0,1570568400,79,17.0149,54.0957,79.86,1.95
277,Katsuura,JP,6,1570568400,91,33.9258,134.505,59.61,0.92
278,Miles City,US,5,1570568400,16,46.4085,-105.841,74.61,11.55
279,Kaeo,NZ,0,1570568400,69,-35.1018,173.7751,62.09,7.36
280,Espanola,CA,0,1570568400,54,46.2653,-81.7699,59.07,8.14
281,Dingle,PH,100,1570568400,86,11.0001,122.6718,73.94,3.06
282,Tazovskiy,RU,100,1570568400,81,67.4667,78.7,33.26,8.16
283,Novokruchininskiy,RU,91,1570568400,73,51.7833,113.7667,46.98,10.35
284,Klyuchi,RU,0,1570568400,69,52.2549,79.1714,51.57,5.75
285,Rome,IT,0,1570568400,64,41.8933,12.4829,60.23,2.57
286,Jimma,ET,40,1570568400,96,7.6741,36.8393,54.32,1.25
287,Loukhi,RU,100,1570568400,97,66.0764,33.0381,34.95,8.3
288,Barcelos,BR,100,1570568400,77,-0.973,-62.9257,81.45,5.5
289,Kisber,HU,99,1570568400,45,47.5029,18.0367,53.69,9.76
290,Santiago,PH,82,1570568400,97,16.6853,121.5409,69.91,1.14
291,Jalu,LY,0,1570568400,21,29.0331,21.5482,81.86,16.87
292,Tuktoyaktuk,CA,17,1570568400,72,69.444,-133.032,32.85,14.98
293,Vao,EE,100,1570568400,97,59.1018,26.1904,38.37,6.66
294,Saldanha,PT,0,1570568400,72,41.4184,-6.5524,64.91,6.18
295,Yarovoye,RU,0,1570568400,64,52.9197,78.5636,51.31,5.08
296,Imbituba,BR,100,1570568400,84,-28.24,-48.6703,69.67,0.92
297,Obo,CF,100,1570568400,94,5.3941,26.4927,70.09,1.5
298,Kruisfontein,ZA,0,1570568400,93,-34.0034,24.7314,55.58,4.99
299,Snezhnogorsk,RU,100,1570568400,82,69.1919,33.2324,39.19,24.09
300,Severnoye,RU,100,1570568400,63,54.0918,52.5416,40.75,4.18
301,Necochea,AR,0,1570568400,62,-38.5473,-58.7368,54.81,10.77
302,Touros,BR,0,1570568400,76,-5.1989,-35.4609,81.64,22.39
303,Meadow Lake,CA,100,1570568400,44,54.1303,-108.4351,36.51,10.02
304,Tuatapere,NZ,100,1570568400,89,-46.1324,167.6908,49.84,7.11
305,Gunjur,GM,100,1570568400,78,13.176,-16.7599,83.61,10.02
306,Nantucket,US,100,1570568400,72,41.2835,-70.0995,61.28,15.19
307,Nanortalik,GL,100,1570568400,94,60.1432,-45.2372,39.58,5.55
308,Coquimbo,CL,67,1570568400,82,-29.9532,-71.3381,60.13,5.57
309,Fort Collins,US,100,1570568400,6,40.5509,-105.0669,77.05,6.85
310,Sao Filipe,CV,0,1570568400,82,14.8961,-24.4956,75.58,14.22
311,Portland,US,100,1570568400,62,43.661,-70.2549,60.34,3.29
312,Wukari,NG,100,1570568400,93,7.8705,9.7776,75.18,3.96
313,Jaisalmer,IN,0,1570568400,30,26.9117,70.9125,84.56,3.58
314,Algiers,US,0,1570568400,56,29.9413,-90.0376,86.76,4.04
315,Dongsheng,CN,50,1570568400,85,29.7168,112.5229,60.78,3.51
316,Grand Gaube,MU,29,1570568400,75,-20.0064,57.6608,73.28,22.06
317,Maragogi,BR,23,1570568400,77,-9.0119,-35.2226,78.3,17.04
318,Batemans Bay,AU,34,1570568400,69,-35.7073,150.1783,49.13,4.65
319,Maniitsoq,GL,19,1570568400,48,65.4167,-52.9001,36.91,8.59
320,Iracoubo,GF,90,1570568400,81,5.4794,-53.2058,80.6,8.37
321,Vila Velha,BR,34,1570568400,75,-3.7125,-38.6045,77.64,11.32
322,Belle Glade,US,100,1570568400,59,26.6845,-80.6676,87.57,3.53
323,Lokosovo,RU,96,1570568400,85,61.1318,74.8396,39.47,11.68
324,Lanzhou,CN,100,1570568400,63,36.0593,103.8239,50.66,5.08
325,Kayes,ML,100,1570568400,59,14.4434,-11.438,86.55,7.72
326,Bograd,RU,95,1570568400,77,54.2181,90.856,46.78,7.27
327,Neuquen,AR,67,1570568400,9,-38.9517,-68.0591,73.44,18.18
328,Kamenka,MD,58,1570568400,58,48.0322,28.7042,45.33,11.27
329,Clyde River,CA,38,1570568400,80,70.4692,-68.5915,28.8,3.11
330,Yenagoa,NG,100,1570568400,97,4.9247,6.2642,72.79,1.16
331,Kenai,US,100,1570568400,78,60.5544,-151.2584,47.07,8.23
332,Port Keats,AU,69,1570568400,84,-14.25,129.55,77.41,3.29
333,Tual,ID,97,1570568400,83,-5.6667,132.75,78.78,16.8
334,Vardo,US,90,1570568400,58,39.6165,-77.7392,65.58,8.7
335,Nikolskoye,RU,75,1570568400,94,59.7035,30.7861,41.11,8.18
336,Rumoi,JP,100,1570568400,78,43.9294,141.6678,55.62,43.28
337,Forestville,CA,63,1570568400,65,48.7394,-69.0883,56.41,12.4
338,Miri,NG,100,1570568400,87,10.3127,9.7453,72.19,2.66
339,Klaksvik,FO,86,1570568400,93,62.2266,-6.5891,50.7,18.54
340,Eureka,US,21,1570568400,88,40.8021,-124.1637,60.8,20.74
341,Tezu,IN,100,1570568400,97,27.9254,96.1647,67.42,3.49
342,Broome,GB,0,1570568400,78,52.4688,1.4544,51.26,14.68
343,Sinnamary,GF,28,1570568400,80,5.3772,-52.9574,82.6,17.13
344,Ribeira Grande,PT,0,1570568400,66,38.5167,-28.7001,65.61,10.26
345,Arlit,NE,43,1570568400,22,18.7391,7.3933,95.31,15.08
346,Tocopilla,CL,0,1570568400,82,-22.092,-70.198,59.72,4.88
347,Araouane,ML,0,1570568400,10,18.9041,-3.5276,93.92,8.86
348,Carutapera,BR,100,1570568400,76,-1.2017,-46.0206,79.83,9.93
349,Vestmanna,FO,85,1570568400,92,62.1564,-7.1664,50.54,22.03
350,Comodoro Rivadavia,AR,67,1570568400,49,-45.8654,-67.4808,57.2,13.13
351,La Ferte-Bernard,FR,0,1570568400,94,48.1863,0.6536,50.68,6.02
352,Kavaratti,IN,24,1570568400,70,10.5669,72.642,82.49,4.07
353,Puerto Suarez,BO,38,1570568400,36,-18.9629,-57.7974,91.61,3.62
354,Lucea,JM,80,1570568400,76,18.4423,-78.1727,88.52,13.77
355,Tessalit,ML,14,1570568400,12,20.2009,1.014,91.71,9.9
356,Celestun,MX,100,1570568400,79,20.8667,-90.4001,81.73,14.9
357,Camacha,PT,100,1570568400,82,33.0833,-16.3334,72.55,16.49
358,Lufilufi,WS,100,1570568400,79,-13.8745,-171.5986,80.47,21.47
359,Nome,US,0,1570568400,51,30.0358,-94.4244,82.02,2.39
360,Yakeshi,CN,71,1570568400,77,49.2833,120.7333,40.37,6.17
361,Matagami,NG,100,1570568400,97,9.6667,8.4,69.37,2.05
362,Bambous Virieux,MU,8,1570568400,77,-20.3428,57.7575,71.24,14.76
363,Paamiut,GL,100,1570568400,94,61.994,-49.6678,39.15,5.74
364,Belaya Gora,RU,56,1570568400,86,68.537,146.1873,10.28,2.74
365,Pandan,PH,98,1570568400,77,11.7199,122.0946,82.47,11.07
366,Saint-Louis,SN,100,1570568400,84,16.028,-16.5049,84.54,12.41
367,Dunmore Town,BS,99,1570568400,78,25.5,-76.6501,82.74,10.64
368,Vysokogornyy,RU,99,1570568400,98,50.0975,139.1259,36.72,3.47
369,Berdigestyakh,RU,100,1570568400,96,62.0983,126.6998,27.55,7.78
370,Koslan,RU,100,1570568400,88,63.4564,48.8989,32.92,14.65
371,Jasper,US,25,1570568400,62,33.8312,-87.2776,75.48,7.56
372,Adelaide,AU,0,1570568400,70,-34.9275,138.5999,47.97,6.06
373,Koraput,IN,100,1570568400,90,18.8111,82.7206,70.79,1.97
374,Lorengau,PG,82,1570568400,79,-2.0226,147.2712,80.82,7.05
375,Buluang,PH,100,1570568400,72,10.4667,123.9833,80.63,3.2
376,Cabedelo,BR,7,1570568400,82,-6.9733,-34.8352,74.95,8.54
377,Sorland,NO,0,1570568400,58,67.667,12.6934,45.33,29.46
378,Banda Aceh,ID,100,1570568400,78,5.5577,95.3222,81.09,15.64
379,Lensk,RU,95,1570568400,97,60.7141,114.9131,12.08,3.94
380,Luanda,AO,34,1570568400,88,-8.8272,13.2437,75.58,13.69
381,Torbay,CA,100,1570568400,89,47.6577,-52.727,55.58,19.31
382,Estevan,CA,37,1570568400,53,49.1428,-102.9911,60.43,9.37
383,Santa Maria,BR,67,1570568400,53,-16.0172,-48.0132,81.09,1.57
384,Eagle,US,100,1570568400,35,43.6954,-116.3541,67.35,15.44
385,Leeton,AU,0,1570568400,81,-34.5484,146.4011,44.83,6.16
386,Port Hedland,AU,12,1570568400,51,-20.3112,118.5801,67.2,0.81
387,Maumere,ID,0,1570568400,65,-8.6257,122.2193,72.5,3.38
388,Riyadh,SA,0,1570568400,32,24.632,46.7151,83.26,6.91
389,Privolzhye,RU,100,1570568400,87,52.8649,48.6044,42.93,7.92
390,Magenta,IT,4,1570568400,60,45.4654,8.8838,61.86,1.25
391,Tumbagaan,PH,100,1570568400,70,5.3656,120.3139,82.74,2.07
392,Nemuro,JP,0,1570568400,63,43.3236,145.575,53.08,29.89
393,Palmer,AU,0,1570568400,87,-34.8528,139.1601,47.05,3.04
394,Gribanovskiy,RU,0,1570568400,79,51.4579,41.9764,34.74,6.64
395,Toccoa,US,38,1570568400,91,34.5774,-83.3329,71.26,7.85
396,Itabira,BR,99,1570568400,66,-19.6187,-43.2266,81.16,4.88
397,Damavand,IR,0,1570568400,66,35.718,52.0682,63.03,1.21
398,Cedar Falls,US,0,1570568400,58,42.5278,-92.4455,68.67,15.55
399,Esmeralda,CL,100,1570568400,54,-34.3319,-70.8959,74.05,8.04
400,Mandera,ET,5,1570568400,60,3.9384,41.8573,82.11,4.12
401,Aquin,HT,18,1570568400,67,18.2809,-73.3945,82.96,3.83
402,Puerto Colombia,CO,100,1570568400,77,10.9891,-74.9555,90.46,7.66
403,Chara,GR,100,1570568400,82,39.4167,22.4309,60.16,2.57
404,Yurty,RU,9,1570568400,95,56.0487,97.6352,30.42,3.09
405,Skibbereen,IE,100,1570568400,75,51.55,-9.2667,54.96,27.0
406,Mount Isa,AU,0,1570568400,21,-20.729,139.4932,67.96,16.84
407,Mehamn,NO,100,1570568400,82,71.035,27.8517,37.22,17.25
408,Oranjemund,ZA,0,1570568400,83,-28.552,16.4284,57.18,11.39
409,Omsukchan,RU,17,1570568400,63,62.5333,155.8,3.81,2.3
410,Opuwo,NA,0,1570568400,42,-18.0559,13.8371,61.83,3.44
411,Bonavista,CA,100,1570568400,89,48.6542,-53.1104,55.09,15.01
412,Cintalapa,MX,94,1570568400,98,16.6951,-93.7272,69.67,4.97
413,Kihei,US,39,1570568400,75,20.7574,-156.446,79.5,14.85
414,Buta,CD,100,1570568400,99,2.7933,24.7287,68.83,2.53
415,Alihe,CN,97,1570568400,91,50.5723,123.7337,39.42,3.65
416,Aberdeen,US,85,1570568400,58,46.9754,-123.8158,53.62,17.06
417,Harper,US,0,1570568400,36,30.2999,-99.2443,84.06,7.49
418,Emborion,GR,90,1570568400,90,40.4833,21.55,54.72,1.95
419,Northam,AU,4,1570568400,69,-31.6536,116.6727,54.61,3.53
420,Half Moon Bay,US,100,1570568400,55,37.4636,-122.4286,75.29,6.39
421,Vicar,ES,0,1570568400,62,36.8316,-2.6428,69.06,2.64
422,Bilibino,RU,100,1570568400,96,68.055,166.4449,10.94,2.77
423,Leshukonskoye,RU,100,1570568400,96,64.8989,45.7622,32.92,14.56
424,Askiz,RU,98,1570568400,87,53.1327,90.53,46.15,4.17
425,Aksu,KZ,0,1570568400,67,52.0354,76.9341,52.85,5.1
426,Xapuri,BR,37,1570568400,39,-10.6512,-68.5018,91.82,3.02
427,Buchanan,LR,100,1570568400,88,5.8813,-10.0495,77.54,16.6
428,Sobolevo,RU,100,1570568400,88,54.4299,31.8996,37.62,11.41
429,Banjar,ID,40,1570568400,94,-7.3694,108.5417,68.31,2.39
430,Gizo,IL,100,1570568400,69,31.8041,34.9381,78.05,10.45
431,Boshan,CN,99,1570568400,72,36.4833,117.8333,55.62,5.88
432,Porto Velho,BR,66,1570568400,38,-8.7495,-63.8736,94.62,1.28
433,Chacabuco,AR,31,1570568400,38,-34.6421,-60.4714,73.62,1.79
434,Miyang,CN,51,1570568400,98,24.4048,103.4351,55.6,3.09
435,Baoying,CN,91,1570568400,87,33.2398,119.3134,59.38,6.69
436,Chinsali,ZM,0,1570568400,42,-10.55,32.0661,68.96,4.67
437,Igarka,RU,7,1570568400,84,67.4672,86.5698,25.56,0.83
438,Rabo de Peixe,PT,91,1570568400,63,37.8,-25.5834,68.85,14.97
439,Bowen,AU,0,1570568400,65,-20.0107,148.2468,72.03,0.78
440,Hambantota,LK,91,1570568400,81,6.1241,81.1185,80.51,11.57
441,Pacific Grove,US,100,1570568400,72,36.6174,-121.9156,71.94,7.29
442,Vukovar,HR,0,1570568400,47,45.3445,19.0018,49.61,6.41
443,Sao Joao da Barra,BR,0,1570568400,88,-21.6403,-41.0512,80.29,19.39
444,Ugoofaaru,MV,70,1570568400,74,5.6667,73.0,82.35,10.77
445,Banepa,NP,0,1570568400,89,27.6323,85.5216,60.71,2.84
446,Limoges,FR,100,1570568400,98,45.8354,1.2645,50.66,2.66
447,Qasigiannguit,GL,22,1570568400,63,68.8201,-51.1933,26.55,6.08
448,West Odessa,US,0,1570568400,44,31.836,-102.4815,85.08,16.47
449,Canico,PT,0,1570568400,76,32.6333,-16.85,72.83,5.44
450,Avera,US,85,1570568400,58,33.194,-82.5271,82.15,5.86
451,Cockburn Town,TC,0,1570568400,82,21.4612,-71.1419,83.14,17.29
452,Airai,TL,0,1570568400,68,-8.9266,125.4092,68.68,3.44
453,Voroshnevo,RU,100,1570568400,93,51.6528,36.0172,36.02,9.15
454,Kirakira,SB,96,1570568400,78,-10.4569,161.9202,79.93,3.69
455,Meulaboh,ID,100,1570568400,78,4.1363,96.1285,79.18,4.79
456,Tignere,CM,100,1570568400,96,7.3667,12.65,68.49,1.32
457,Margate,AU,40,1570568400,87,-43.0274,147.2623,49.05,2.13
458,Anderson,US,94,1570568400,89,34.5069,-82.6507,69.49,13.3
459,Novokizhinginsk,RU,100,1570568400,82,51.6115,109.5917,40.5,15.52
460,Reyes,BO,0,1570568400,49,-14.2953,-67.3359,87.11,3.8
461,Huarmey,PE,99,1570568400,87,-10.0688,-78.1522,60.42,11.68
462,Rantauprapat,ID,100,1570568400,99,2.1,99.8333,72.32,0.36
463,Batagay,RU,50,1570568400,85,67.6549,134.6351,10.13,3.91
464,Grindavik,IS,100,1570568400,82,63.8424,-22.4338,50.31,12.93
465,Prince Rupert,CA,0,1570568400,45,54.3161,-130.3202,50.13,8.39
466,Monze,ZM,0,1570568400,35,-16.276,27.4764,72.23,3.45
467,Shenxian,CN,99,1570568400,68,36.2411,115.6672,58.12,6.8
468,Bobcaygeon,CA,0,1570568400,45,44.5379,-78.5466,61.66,1.86
469,Huilong,CN,94,1570568400,94,31.1549,106.4976,60.4,3.49
470,Ucluelet,CA,0,1570568400,66,48.9414,-125.5491,52.9,21.34
471,Nanyang,CN,100,1570568400,69,33.001,112.5293,61.27,3.65
472,Mahibadhoo,MV,6,1570568400,70,3.7833,72.9667,81.95,3.96
473,Salinas,US,97,1570568400,21,36.6744,-121.6551,81.34,10.17
474,Canelli,IT,34,1570568400,77,44.7199,8.2882,56.12,1.92
475,Sibolga,ID,98,1570568400,84,1.737,98.7846,78.87,9.08
476,Udachnyy,RU,100,1570568400,93,66.4167,112.4,17.78,16.3
477,Skjervoy,NO,99,1570568400,63,70.0311,20.9714,39.64,16.6
478,Bathsheba,BB,100,1570568400,75,13.2167,-59.5167,85.24,19.13
479,Haines Junction,CA,100,1570568400,40,60.7527,-137.5101,26.37,6.73
480,Port Blair,IN,100,1570568400,69,11.6667,92.75,83.28,4.73
481,La Palma,CO,80,1570568400,71,5.3606,-74.3906,80.06,3.06
482,Khani,GE,72,1570568400,57,41.9563,42.9566,65.46,4.16
483,Pringsewu,ID,26,1570568400,98,-5.3555,104.9774,69.1,2.55
484,Teya,MX,100,1570568400,90,21.0486,-89.0739,79.45,6.02
485,Reserva,AR,59,1570568400,8,-38.7268,-68.1783,73.45,16.15
486,Puerto El Triunfo,SV,100,1570568400,78,13.2748,-88.5472,84.31,6.24
487,Kingseat,GB,100,1570568400,92,56.0974,-3.4084,50.59,10.13
488,Poso,ID,68,1570568400,79,-1.4012,120.7496,65.97,4.17
489,Semporna,MY,98,1570568400,93,4.48,118.6117,74.35,2.64
490,Qixia,CN,100,1570568400,48,37.3084,120.831,47.71,4.47
491,Am Timan,TD,100,1570568400,92,11.0396,20.2826,71.73,3.04
492,Douglas,US,53,1570568400,49,58.2756,-134.3926,40.57,0.96
493,Flinders,AU,41,1570568400,72,-34.581,150.846,54.56,22.07
494,Lillooet,CA,64,1570568400,68,50.6912,-121.9399,32.68,10.36
495,Ahuimanu,US,73,1570568400,55,21.4447,-157.8378,86.45,2.62
496,Biskamzha,RU,98,1570568400,95,53.4509,89.5287,42.67,0.6
497,Alice Springs,AU,0,1570568400,29,-23.6984,133.8813,58.02,11.05
498,Shache,CN,100,1570568400,32,38.4167,77.2406,62.78,2.22
499,Hinton,CA,100,1570568400,78,53.4047,-117.5703,23.13,8.61
500,Mwinilunga,ZM,99,1570568400,67,-11.7315,24.426,63.77,2.37
501,Jiuquan,CN,99,1570568400,50,39.7321,98.4937,49.73,2.99
502,Novyy Urengoy,RU,100,1570568400,86,66.0833,76.6333,31.53,10.5
503,General Delgado,PY,0,1570568400,59,-27.0907,-56.5255,79.54,4.12
504,Deputatskiy,RU,100,1570568400,98,69.3,139.9,4.98,2.04
505,Sulangan,PH,100,1570568400,77,11.1373,123.7228,81.86,5.56
506,Ekuvukeni,ZA,2,1570568400,77,-28.4676,30.1551,61.0,2.36
507,Mazyr,BY,100,1570568400,54,52.0476,29.2666,43.99,13.06
508,Kungurtug,RU,32,1570568400,81,50.5987,97.5254,34.56,4.47
509,Ambon,FR,28,1570568400,79,47.5542,-2.5567,59.0,16.04
510,Auki,NG,99,1570568400,82,12.1824,6.5056,75.45,3.89
511,Heihe,RU,43,1570568400,72,50.2378,127.5132,38.38,6.85
512,Ternate,PH,91,1570568400,86,14.2859,120.7165,79.61,6.46
513,Matara,BI,37,1570568400,58,-3.4812,29.4807,62.51,5.2
514,Gainesville,US,3,1570568400,71,29.6519,-82.325,82.61,7.61
515,Shingu,JP,8,1570568400,97,33.7241,135.993,50.25,7.16
516,Nusaybin,TR,100,1570568400,24,37.0826,41.2145,75.82,5.37
517,Bulgan,MN,0,1570568400,60,48.8129,103.5323,38.97,7.16
518,Abramovka,GE,15,1570568400,72,41.4701,45.0076,58.68,0.49
519,Xining,CN,100,1570568400,83,36.6219,101.773,40.24,3.27
520,Yarmouth,CA,100,1570568400,76,43.8373,-66.1157,58.23,5.16
521,Kangaba,ML,9,1570568400,75,11.9415,-8.4139,77.31,5.37
522,Beberibe,BR,6,1570568400,74,-4.1811,-38.1299,76.41,7.78
523,Saint-Georges,CA,24,1570568400,68,46.123,-70.672,53.15,5.88
524,Henties Bay,NA,0,1570568400,88,-22.1161,14.2845,61.74,12.64
525,Ambunti,PG,17,1570568400,95,-4.2181,142.8225,75.18,2.0
526,Tayu,JP,0,1570568400,69,35.0643,136.668,61.65,8.39
527,Lamu,CN,100,1570568400,82,35.7664,102.3749,43.61,5.24
528,Tyret Pervaya,RU,28,1570568400,91,53.6703,102.3106,30.99,7.34
529,Athabasca,CA,100,1570568400,44,54.7215,-113.2858,33.08,12.37
530,Aleksandrov Gay,RU,100,1570568400,51,50.1425,48.5684,49.35,10.64
531,Kalmunai,LK,3,1570568400,92,7.4167,81.8167,74.84,1.83
532,Hermiston,US,79,1570568400,31,45.8404,-119.2895,60.77,26.13
533,Ashoknagar,IN,0,1570568400,69,24.5762,77.7303,73.17,2.53
534,Malinyi,TZ,0,1570568400,63,-8.944,36.1369,78.42,6.99
